[
  {
    "name": "Matisse antares",
    "slug": "matisse-antares",
    "cnpj": "",
    "address": "",
    "id": "1764793469171",
    "createdAt": "2025-12-03T20:24:29.171Z",
    "updatedAt": "2025-12-03T20:24:29.172Z"
  },
  {
    "id": "loc-shopping-001",
    "name": "Shopping Ibirapuera",
    "slug": "shopping-ibirapuera",
    "address": "Av. Ibirapuera, 3103",
    "city": "São Paulo",
    "state": "SP",
    "latitude": -23.6105,
    "longitude": -46.6655,
    "averageDailyTraffic": 50000,
    "category": "entretenimento",
    "accountId": "acc-midiabox-001",
    "isActive": true,
    "createdAt": "2026-01-25T00:03:06.504Z",
    "updatedAt": "2026-01-25T00:03:06.504Z"
  },
  {
    "id": "loc-metro-001",
    "name": "Estação Sé",
    "slug": "estacao-se",
    "address": "Praça da Sé, s/n",
    "city": "São Paulo",
    "state": "SP",
    "latitude": -23.5505,
    "longitude": -46.6333,
    "averageDailyTraffic": 80000,
    "accountId": "acc-midiabox-001",
    "isActive": true,
    "createdAt": "2026-01-25T00:03:06.504Z",
    "updatedAt": "2026-01-25T00:03:06.504Z"
  },
  {
    "id": "loc-hospital-001",
    "name": "Hospital Santa Vida",
    "slug": "hospital-santa-vida",
    "address": "Av. Paulista, 1000",
    "city": "São Paulo",
    "state": "SP",
    "latitude": -23.5629,
    "longitude": -46.6544,
    "averageDailyTraffic": 3000,
    "category": "clinica",
    "accountId": "acc-hospital-001",
    "isActive": true,
    "createdAt": "2026-01-25T00:03:06.504Z",
    "updatedAt": "2026-01-25T00:03:06.504Z"
  },
  {
    "id": "loc-padaria-001",
    "name": "Padaria Brasileira - Pinheiros",
    "slug": "padaria-brasileira-pinheiros",
    "address": "Rua dos Pinheiros, 500",
    "city": "São Paulo",
    "state": "SP",
    "latitude": -23.5667,
    "longitude": -46.6878,
    "averageDailyTraffic": 800,
    "category": "alimentacao",
    "accountId": "acc-midiabox-001",
    "isActive": true,
    "createdAt": "2026-01-25T00:03:06.504Z",
    "updatedAt": "2026-01-25T00:03:06.504Z"
  },
  {
    "id": "loc-padaria-002",
    "name": "Padaria Brasileira - Moema",
    "slug": "padaria-brasileira-moema",
    "address": "Av. Moema, 300",
    "city": "São Paulo",
    "state": "SP",
    "latitude": -23.604,
    "longitude": -46.6695,
    "averageDailyTraffic": 600,
    "category": "alimentacao",
    "accountId": "acc-midiabox-001",
    "isActive": true,
    "createdAt": "2026-01-25T00:03:06.504Z",
    "updatedAt": "2026-01-25T00:03:06.504Z"
  },
  {
    "id": "loc-academia-001",
    "name": "Academia FitLife",
    "slug": "academia-fitlife",
    "address": "Rua Augusta, 1200",
    "city": "São Paulo",
    "state": "SP",
    "latitude": -23.5537,
    "longitude": -46.6571,
    "averageDailyTraffic": 400,
    "category": "academia",
    "accountId": "acc-midiabox-001",
    "isActive": true,
    "createdAt": "2026-01-25T00:03:06.504Z",
    "updatedAt": "2026-01-25T00:03:06.504Z"
  },
  {
    "id": "loc-farmacia-001",
    "name": "Farmácia Popular",
    "slug": "farmacia-popular",
    "address": "Rua da Consolação, 800",
    "city": "São Paulo",
    "state": "SP",
    "latitude": -23.5486,
    "longitude": -46.655,
    "averageDailyTraffic": 200,
    "category": "farmacia",
    "accountId": "acc-midiabox-001",
    "isActive": true,
    "createdAt": "2026-01-25T00:03:06.504Z",
    "updatedAt": "2026-01-25T00:03:06.504Z"
  },
  {
    "id": "loc-clinica-001",
    "name": "Clínica Bem Estar",
    "slug": "clinica-bem-estar",
    "address": "Av. Brasil, 500",
    "city": "São Paulo",
    "state": "SP",
    "latitude": -23.5458,
    "longitude": -46.6358,
    "averageDailyTraffic": 150,
    "category": "clinica",
    "accountId": "acc-midiabox-001",
    "isActive": true,
    "createdAt": "2026-01-25T00:03:06.504Z",
    "updatedAt": "2026-01-25T00:03:06.504Z"
  }
]